{"name": "DQ(\u4e0a\u6d77\u9f99\u4e4b\u68a6\u5e97)", "longitude": 121.41624999124, "latitude": 31.2185280425821, "address": "\u957f\u5b81\u533a\u957f\u5b81\u8def1018\u53f7\u9f99\u4e4b\u68a6\u8d2d\u7269\u4e2d\u5fc3B2\u5c42B2-K10\u53f7", "shop_id": 1983876, "phone": "4001088870"}
{"name": "\u806a\u5c11\u751c\u54c1\uff08\u4e0a\u6d77\u6708\u661f\u73af\u7403\u6e2f\u5e97\uff09", "longitude": 121.41297, "latitude": 31.23284, "address": "\u4e0a\u6d77\u5e02\u666e\u9640\u533a\u4e2d\u5c71\u5317\u8def3300\u53f7\u6708\u661f\u73af\u7403\u6e2fB2165-2166\u53f7", "shop_id": 150141057, "phone": "021-62587917 13062736869"}
{"name": "\u5feb\u4e50\u67e0\u6aac\uff08\u4e2d\u5c71\u516c\u56ed\u51ef\u65cb\u8def\u5e97\uff09", "longitude": 121.416038, "latitude": 31.21713, "address": "\u51ef\u65cb\u8def351\u53f7\u5730\u94c1\u4e09\u53f7\u7ebf\u4e2d\u5c71\u516c\u56ed\u7ad9\u5357\u4fa71\u697c\u5546\u94fa3-15", "shop_id": 56566, "phone": "31125125"}
{"name": "\u9c9c\u4e30\u6c34\u679c\uff08\u4e0a\u6d77\u5ba3\u5316\u8def\u5e97\uff09", "longitude": 121.428637, "latitude": 31.217637, "address": "\u4e0a\u6d77\u5e02\u957f\u5b81\u533a\u5ba3\u5316\u8def86\u53f7", "shop_id": 1772673, "phone": "021-52798126"}
{"name": "\u97e9\u56fd\u706b\u91dc\u70b8\u9e21\uff08\u91d1\u6c99\u6c5f\u8def\u5e97\uff09", "longitude": 121.40154, "latitude": 31.23198, "address": "\u4e0a\u6d77\u5e02\u666e\u9640\u533a\u66f9\u6768\u65b0\u6751\u8857\u9053\u66f9\u6768\u4e5d\u675167\u53f7\u7532", "shop_id": 268883, "phone": "18601634831"}
{"name": "HEY JUICE\u8336\u6854\u4fbf\uff08\u53e4\u5317\u8def\u5e97\uff09", "longitude": 121.400694, "latitude": 31.21091, "address": "\u957f\u5b81\u533a\u53e4\u5317\u8def437\u53f7", "shop_id": 1323955, "phone": "18930060227"}
{"name": "\u98ce\u884c\u8336\u996e(\u66f9\u6768\u8def\u5e97\uff09", "longitude": 121.42200671145, "latitude": 31.2318720643813, "address": "\u4e0a\u6d77\u5e02\u666e\u9640\u533a\u66f9\u6768\u8def177\u53f7-1", "shop_id": 1403912, "phone": "18321295810"}
{"name": "\u65b0\u5317\u6728\u74dc\u725b\u5976\uff08\u8305\u53f0\u8def\u5e97\uff09", "longitude": 121.402087, "latitude": 31.210449, "address": "\u4e0a\u6d77\u5e02\u957f\u5b81\u533a\u5929\u5c71\u8def\u8857\u9053\u8305\u53f0\u8def200\u5f043\u53f7103\u5ba4", "shop_id": 150990580, "phone": "18301814186"}
{"name": "\u6cd5\u610f\u6cd5\u827e\u7f8e\u7532\u5496\u5561", "longitude": 121.437813, "latitude": 31.202496, "address": "\u4e0a\u6d77\u5e02\u5f90\u6c47\u533a\u6dee\u6d77\u4e2d\u8def1854\u53f7\u5e95\u5c42", "shop_id": 1315072, "phone": "15900666640"}
{"name": "\u5c71\u4e1c\u6c34\u997a(\u767d\u5170\u5e97)", "longitude": 121.414865711173, "latitude": 31.2358110344435, "address": "\u666e\u9640\u533a\u767d\u5170\u8def135\u5f041\u53f7", "shop_id": 1399219, "phone": "13681610796 15821986439"}
{"name": "\u5730\u8868\u6700\u5f3a\u80a5\u725b\u996d\uff08\u73af\u7403\u6e2f\u5e97\uff09", "longitude": 121.411204, "latitude": 31.228137, "address": "\u4e0a\u6d77\u5e02\u677e\u6c5f\u533a\u4e5d\u4ead\u9547\u6caa\u677e\u516c\u8def1221\u53f710\u5e62108\u5ba4", "shop_id": 152108083, "phone": "62110916"}
{"name": "\u9c8d\u8001\u5e08\u7cd5\u70b9\uff08\u957f\u5b81\u5e97\uff09", "longitude": 121.412066, "latitude": 31.217058, "address": "\u4e0a\u6d77\u5e02\u957f\u5b81\u533a\u957f\u5b81\u8def1287\u53f7", "shop_id": 155551391, "phone": "13161980839 15711161576"}
{"name": "\u5468\u9ed1\u9e2d\uff08\u4e0a\u6d77\u5c0f\u9a6c\u8def\u5e97\uff09", "longitude": 121.41989, "latitude": 31.21909, "address": "\u4e0a\u6d77\u5e02\u957f\u5b81\u533a\u957f\u5b81\u8def820\u53f7\u4e0a\u6d77\u5c0f\u9a6c\u8def\u5546\u573a\u8f7b\u98df\u533aQ10\u53f7\u5546\u94fa", "shop_id": 645663, "phone": "158-9786-8013"}
{"name": "\u73b0\u70e4\u7f8e\u5473\u6ce1\u8299", "longitude": 121.4297, "latitude": 31.234327, "address": "\u957f\u5bff\u8def892\u3001898\u53f7106\u5ba4", "shop_id": 150135245, "phone": "52993566"}
{"name": "\u7c73\u756a\u5c4b\uff08\u5929\u5c71\u652f\u8def\u5e97\uff09", "longitude": 121.398633, "latitude": 31.215029, "address": "\u5929\u5c71\u8def\u8857\u9053\u5929\u5c71\u652f\u8def43\u53f7\u5e95\u5c422\u5ba4", "shop_id": 151704022, "phone": "13052299060"}
{"name": "UNI JUICE&\u6c99\u62c9", "longitude": 121.411618, "latitude": 31.208537, "address": "\u4e0a\u6d77\u5e02\u957f\u5b81\u533a\u5468\u5bb6\u6865\u8857\u9053\u6b66\u5937\u8def779\u53f7B1\u5c42-01\u5185B16", "shop_id": 1155923, "phone": "18616734509"}
{"name": "\u661f\u5df4\u514b\u5496\u5561\u4ee3\u8d2d\uff08\u6c5f\u82cf\u8def\u5e97\uff09", "longitude": 121.431218, "latitude": 31.218183, "address": "\u4e0a\u6d77\u5e02\u957f\u5b81\u533a\u6c5f\u82cf\u8def458\u53f7\u4e00\u5c42116\u5ba4", "shop_id": 2060445, "phone": "4000130917"}
{"name": "\u5e03\u767d\u9178\u5976\uff08\u4e2d\u5c71\u516c\u56ed\u5e97\uff09", "longitude": 121.414248, "latitude": 31.212749, "address": "\u6b66\u5937\u8def779\u53f7B1\u5c42-01\u5185A13", "shop_id": 151667426, "phone": "13764387403"}
{"name": "Kissimmee\u751c\u54c1\u7b80\u9910(\u65b0\u6e14\u4e1c\u8def\u5e97)", "longitude": 121.388218, "latitude": 31.212316, "address": "\u65b0\u6e14\u4e1c\u8def300\u53f7", "shop_id": 150099444, "phone": "18321337445"}
{"name": "\u8fa3\u5c1aIN", "longitude": 121.405126, "latitude": 31.211526, "address": "\u4e0a\u6d77\u5e02\u957f\u5b81\u533a\u5929\u5c71\u8def900\u53f7B2\u697cA8\u4e13\u67dc", "shop_id": 2017166, "phone": "17317301013"}
{"name": "\u8001\u5a46\u5f88\u8292\u69b4\u83b2\u5343\u5c42\u86cb\u7cd5", "longitude": 121.424277, "latitude": 31.174806, "address": "\u4e0a\u6d77\u5e02\u5f90\u6c47\u533a\u7530\u6797\u4e1c\u8def75\u53f7B1\u697cB136\u94fa\u4f4d", "shop_id": 155308228, "phone": "15121016143"}
{"name": "\u5357\u6d0b\u8336\u94fa\uff08\u4e2d\u5c71\u5e7f\u573aSOHO\u5e97\uff09", "longitude": 121.415359, "latitude": 31.198171, "address": "\u4e0a\u6d77\u5e02\u957f\u5b81\u533a\u4e2d\u5c71\u897f\u8def1065\u53f7101\u5ba4", "shop_id": 150058690, "phone": "13681647005 13122005670"}
{"name": "\u725b\u5976\u5c0f\u59d0(\u8679\u6865\u5357\u4e30\u57ce\u5e97)", "longitude": 121.40785, "latitude": 31.20727, "address": "\u4e0a\u6d77\u5e02\u957f\u5b81\u533a\u9075\u4e49\u8def100\u53f7\u8679\u6865\u5357\u4e30\u57ce\u5357\u533aL2\u697c210\u53f7(\u8fd1\u7d2b\u4e91\u897f\u8def)", "shop_id": 2032146, "phone": "021-62371107"}
{"name": "BlueBerry\u5e03\u6d1b\u8d1d\u745e\uff08\u60a6\u8fbe889\uff09", "longitude": 121.427357, "latitude": 31.229699, "address": "\u4e0a\u6d77\u5e02\u9759\u5b89\u533a\u4e07\u822a\u6e21\u8def889\u53f7\u5730\u4e0b\u4e00\u5c42B1-17A\u5ba4", "shop_id": 155118934, "phone": "52897877"}
